[
  {
    "id": 1,
    "name": "Rest. Hirschen",
    "streetAddress": "Foobar",
    "addressCountry": "CH",
    "postalCode": "1234",
    "city": "Hagenbuch",
    "latitude": 8.837266,
    "longitude": 47.523741
  },
  {
    "id": 2,
    "name": "Rest. Sonne",
    "streetAddress": "Foobar",
    "postalCode": "2",
    "city": "Warth",
    "latitude": 123541.123,
    "longitude": 12345.123
  },
  {
    "id": 3,
    "name": "Rest. Sch√§fli",
    "streetAddress": "Foobar",
    "postalCode": "3",
    "city": "Ossingen",
    "longitude": 12345.123,
    "latitude": 123541.123
  },
  {
    "id": 7,
    "name": "Sonne",
    "streetAddress": "Foobar",
    "city": "Ossingen",
    "postalCode": "3",
    "longitude": 12345.123,
    "latitude": 123541.123
  },
  {
    "id": 8,
    "name": "Frohe Aussicht",
    "streetAddress": null,
    "city": "Alten",
    "postalCode": null,
    "latitude": 123,
    "longitude": 123
  },
  {
    "id": 9,
    "name": "Kreuzstrasse",
    "streetAddress": null,
    "city": "Altikon",
    "postalCode": null,
    "latitude": null,
    "longitude": 456
  },
  {
    "id": 10,
    "name": "Krone",
    "streetAddress": null,
    "city": "Appenzell",
    "postalCode": null,
    "latitude": null,
    "longitude": null
  },
  {
    "id": 11,
    "name": "Traube",
    "streetAddress": null,
    "city": "Appenzell",
    "postalCode": null,
    "latitude": null,
    "longitude": null
  },
  {
    "id": 12,
    "name": "Sonne",
    "streetAddress": null,
    "city": "Appenzell",
    "postalCode": null,
    "latitude": null,
    "longitude": null
  },
  {
    "id": 13,
    "name": "Rest. Frohsinn",
    "streetAddress": "Dorfstrasse 3",
    "addressCountry": "CH",
    "postalCode": "8483",
    "city": "Kollbrunn",
    "latitude": 47.457702,
    "longitude": 8.774701
  }
]